[
	{
		"login": "sky",
		"password": "12",
		"cities": [
			{
				"id": 625144,
				"name": "Minsk",
				"state": "",
				"country": "BY",
				"coord": {
					"lon": 27.566668,
					"lat": 53.900002
				}
			},
			{
				"id": 11263,
				"name": "Shahrīār Kandeh",
				"state": "",
				"country": "IR",
				"coord": {
					"lon": 53.19902,
					"lat": 36.631939
				}
			},
			{
				"id": 148724,
				"name": "Zanzibar Urban/West Region",
				"state": "",
				"country": "TZ",
				"coord": {
					"lon": 39.25,
					"lat": -6.16667
				}
			},
			{
				"id": 623549,
				"name": "Pinsk",
				"state": "",
				"country": "BY",
				"coord": {
					"lon": 26.0951,
					"lat": 52.122898
				}
			},
			{
				"id": 18918,
				"name": "Protaras",
				"state": "",
				"country": "CY",
				"coord": {
					"lon": 34.058331,
					"lat": 35.012501
				}
			},
			{
				"id": 7626528,
				"name": "agz installatietechniek",
				"state": "",
				"country": "NL",
				"coord": {
					"lon": 4.81981,
					"lat": 52.64555
				}
			}
		],
		"theme": " dark"
	},
	{
		"login": "User",
		"password": "1111",
		"cities": [],
		"theme": ""
	},
	{
		"login": "Denis",
		"password": "1234",
		"cities": [
			{
				"id": 620181,
				"name": "Vilyeyka",
				"state": "",
				"country": "BY",
				"coord": {
					"lon": 26.90624,
					"lat": 54.489601
				}
			}
		],
		"theme": " dark"
	},
	{
		"login": "user145",
		"password": "11",
		"cities": [],
		"theme": ""
	},
	{
		"login": "userVit",
		"password": "1234",
		"cities": [],
		"theme": ""
	}
]